[
  {
    "name": "Cafe Mokoro",
    "phone": "8109785506",
    "rating": "4.8",
    "reviews": "31",
    "category": "Cafe",
    "address": "G-22, Swarn Plaza, Loyola Public School, Towards, Road, Rajiv Vihar Colony, Rajkishore Nagar, Bilaspur, Chhattisgarh 495006",
    "website": "cafemokoro.com",
    "coordinates": null,
    "plusCode": "35QJ+4H Rajkishore Nagar, Chhattisgarh",
    "openingHours": "Not found",
    "businessStatus": "Ó¢µClosed ¬∑ Opens 12‚ÄØpmConfirmed by phone call 1 week agoSee more hoursÓåï",
    "priceLevel": "Price range histogram",
    "link": "https://www.google.com/maps/place/Cafe+Mokoro/data=!4m7!3m6!1s0x3a280b151eabfd7f:0xcf59f7fb181c4799!8m2!3d22.0877683!4d82.181391!16s%2Fg%2F11x66f5_wb!19sChIJf_2rHhULKDoRmUccGPv3Wc8?authuser=0&hl=en&rclk=1"
  },
  {
    "name": "Hakuna Matata Bites cafe",
    "phone": "9338888831",
    "rating": "4.9",
    "reviews": "46",
    "category": "Cafe",
    "address": "35FC+GCM, Torwa, Bilaspur, Chhattisgarh 495004",
    "website": "Not found",
    "coordinates": null,
    "plusCode": "Not found",
    "openingHours": "Closed ¬∑ Opens 2‚ÄØpm",
    "businessStatus": "Open",
    "priceLevel": "Price range histogram",
    "link": "https://www.google.com/maps/place/Hakuna+Matata+Bites+cafe/data=!4m7!3m6!1s0x3a280b00713b81ff:0x8890b55316b9acc5!8m2!3d22.0738375!4d82.1710469!16s%2Fg%2F11wqv7v5hv!19sChIJ_4E7cQALKDoRxay5FlO1kIg?authuser=0&hl=en&rclk=1"
  },
  {
    "name": "Dada ji bakery and cafe",
    "phone": "6269186666",
    "rating": "4.6",
    "reviews": "22",
    "category": "Cafe",
    "address": "35G9+R76, Dayalband, Chhattisgarh 495001",
    "website": "Not found",
    "coordinates": null,
    "plusCode": "Not found",
    "openingHours": "Closed ¬∑ Opens 10‚ÄØam (Updated by phone call 12 weeks ago)",
    "businessStatus": "Open",
    "priceLevel": "Price range histogram",
    "link": "https://www.google.com/maps/place/Dada+ji+bakery+and+cafe/data=!4m7!3m6!1s0x3a280b001d1101d9:0xd3b2c94d3d73b82a!8m2!3d22.0770268!4d82.1681451!16s%2Fg%2F11vwncbpgj!19sChIJ2QERHQALKDoRKrhzPU3JstM?authuser=0&hl=en&rclk=1"
  },
  {
    "name": "Maze The Cafe",
    "phone": "9109994982",
    "rating": "4.1",
    "reviews": "1,066",
    "category": "Cafe",
    "address": "Ground Floor, Telephone Exchange Rd, Telipara, Chhattisgarh 495001",
    "website": "Not found",
    "coordinates": null,
    "plusCode": "35G4+M3 Telipara, Chhattisgarh",
    "openingHours": "Closed ¬∑ Opens 11‚ÄØam",
    "businessStatus": "Open",
    "priceLevel": "Price range histogram",
    "link": "https://www.google.com/maps/place/Maze+The+Cafe/data=!4m7!3m6!1s0x3a280b167f433a51:0x37cfc7d3fd71af40!8m2!3d22.0766931!4d82.1551388!16s%2Fg%2F11g9m9bvzd!19sChIJUTpDfxYLKDoRQK9x_dPHzzc?authuser=0&hl=en&rclk=1"
  },
  {
    "name": "The Blue BIRD CAFETERIA",
    "phone": "6269868863",
    "rating": "4.8",
    "reviews": "13",
    "category": "Cafe",
    "address": "In frount of Happy Street, pachrighat, Juna, Chhattisgarh 495001",
    "website": "thebluebirdcafeteria.in",
    "coordinates": null,
    "plusCode": "35P6+2W Juna, Chhattisgarh",
    "openingHours": "Open 24 hours",
    "businessStatus": "Open",
    "priceLevel": "Price range histogram",
    "link": "https://www.google.com/maps/place/The+Blue+BIRD+CAFETERIA/data=!4m7!3m6!1s0x3a280bdaa4ac6199:0xb8710ea757c3d0ba!8m2!3d22.0851124!4d82.16228!16s%2Fg%2F11vl7mb72x!19sChIJmWGspNoLKDoRutDDV6cOcbg?authuser=0&hl=en&rclk=1"
  },
  {
    "name": "BakeNgrills",
    "phone": "Not found",
    "rating": "4.8",
    "reviews": "95",
    "category": "Cafe",
    "address": "CG, Eden court commercial complex, beside Loyola School Road, Bilaspur, Chhattisgarh 495006",
    "website": "link.zomato.com",
    "coordinates": null,
    "plusCode": "35RM+HJ Bilaspur, Chhattisgarh",
    "openingHours": "Closed ¬∑ Opens 12‚ÄØpm",
    "businessStatus": "Open",
    "priceLevel": "Price range histogram",
    "link": "https://www.google.com/maps/place/BakeNgrills/data=!4m7!3m6!1s0x3a280b4ea4eb98e1:0xbfeca6823b003076!8m2!3d22.0913965!4d82.1840885!16s%2Fg%2F11s558w_dw!19sChIJ4ZjrpE4LKDoRdjAAO4Km7L8?authuser=0&hl=en&rclk=1"
  },
  {
    "name": "Chillout cafe",
    "phone": "Not found",
    "rating": "4.5",
    "reviews": "37",
    "category": "Coffee shop",
    "address": "Indrajit Complex, D.P college, Old High Court Rd, Bilaspur, Telipara, Chhattisgarh 495001",
    "website": "Not found",
    "coordinates": null,
    "plusCode": "35G7+WJ Telipara, Chhattisgarh",
    "openingHours": "Closed ¬∑ Opens 11‚ÄØam",
    "businessStatus": "Open",
    "priceLevel": "Price range histogram",
    "link": "https://www.google.com/maps/place/Chillout+cafe/data=!4m7!3m6!1s0x3a280b3706e5dc3d:0x649c226485cf1f0f!8m2!3d22.077272!4d82.16404!16s%2Fg%2F11r0xbdpqs!19sChIJPdzlBjcLKDoRDx_PhWQinGQ?authuser=0&hl=en&rclk=1"
  },
  {
    "name": "Cafe Ibiza",
    "phone": "7752404141",
    "rating": "4.0",
    "reviews": "1,253",
    "category": "Cafe",
    "address": "Main Road, Tarbahar Indra, Rajiv Gandhi Chowk, near PGBT College, Bilaspur, Chhattisgarh 495004",
    "website": "Not found",
    "coordinates": null,
    "plusCode": "35C6+RP Bilaspur, Chhattisgarh",
    "openingHours": "Closed ¬∑ Opens 9‚ÄØam",
    "businessStatus": "Open",
    "priceLevel": "Price range histogram",
    "link": "https://www.google.com/maps/place/Cafe+Ibiza/data=!4m7!3m6!1s0x3a280b22e78b4ff3:0x87b92a2b1a01be05!8m2!3d22.0720009!4d82.1618279!16s%2Fg%2F11bxjm03bg!19sChIJ80-L5yILKDoRBb4BGisquYc?authuser=0&hl=en&rclk=1"
  },
  {
    "name": "Rasta Cafe",
    "phone": "Not found",
    "rating": "5.0",
    "reviews": "6",
    "category": "Housing society",
    "address": "Rajiv Vihar Colony, Rajkishore Nagar, Chhattisgarh 495006",
    "website": "Not found",
    "coordinates": null,
    "plusCode": "35QJ+6X Rajkishore Nagar, Chhattisgarh",
    "openingHours": "Open 24 hours",
    "businessStatus": "Open",
    "priceLevel": "Not found",
    "link": "https://www.google.com/maps/place/Rasta+Cafe/data=!4m7!3m6!1s0x3a280b72cd91803b:0xde2b5a5be5d3912c!8m2!3d22.088107!4d82.1824027!16s%2Fg%2F11l66yjsvy!19sChIJO4CRzXILKDoRLJHT5VtaK94?authuser=0&hl=en&rclk=1"
  },
  {
    "name": "Delicious Dishes",
    "phone": "7566648048",
    "rating": "5.0",
    "reviews": "43",
    "category": "Cafe",
    "address": "Infront of paris bakery near government school dayalband, Main Rd, Bilaspur, Chhattisgarh 495004",
    "website": "Not found",
    "coordinates": null,
    "plusCode": "35H8+5Q Bilaspur, Chhattisgarh",
    "openingHours": "Closed ¬∑ Opens 1‚ÄØpm",
    "businessStatus": "Open",
    "priceLevel": "Price range histogram",
    "link": "https://www.google.com/maps/place/Delicious+Dishes/data=!4m7!3m6!1s0x3a280b965aed5825:0x29bea8260d0455d4!8m2!3d22.0779232!4d82.1669878!16s%2Fg%2F11sd72znj0!19sChIJJVjtWpYLKDoR1FUEDSaovik?authuser=0&hl=en&rclk=1"
  },
  {
    "name": "ETS CAFE",
    "phone": "Not found",
    "rating": "4.2",
    "reviews": "84",
    "category": "Cafe",
    "address": "Shiv Talkies Road, near City Center, Bilaspur, Telipara, Chhattisgarh 495001",
    "website": "Not found",
    "coordinates": null,
    "plusCode": "35F6+CW Bilaspur, Chhattisgarh",
    "openingHours": "Closed ¬∑ Opens 9:30‚ÄØam",
    "businessStatus": "Open",
    "priceLevel": "Not found",
    "link": "https://www.google.com/maps/place/ETS+CAFE/data=!4m7!3m6!1s0x3a280bc2c1a30325:0xe8856a114769c868!8m2!3d22.073529!4d82.1623415!16s%2Fg%2F11hz06_41v!19sChIJJQOjwcILKDoRaMhpRxFqheg?authuser=0&hl=en&rclk=1"
  },
  {
    "name": "Dhuaa Lounge And Cafe",
    "phone": "Not found",
    "rating": "3.7",
    "reviews": "11",
    "category": "Cafe",
    "address": "35PP+9HC, Unnamed Road, Rajkishore Nagar, Chhattisgarh 495006",
    "website": "Not found",
    "coordinates": null,
    "plusCode": "Not found",
    "openingHours": "Closed ¬∑ Opens 10‚ÄØam",
    "businessStatus": "Open",
    "priceLevel": "Not found",
    "link": "https://www.google.com/maps/place/Dhuaa+Lounge+And+Cafe/data=!4m7!3m6!1s0x3a280aee153fffff:0x31376a4d26ff162b!8m2!3d22.085945!4d82.1864032!16s%2Fg%2F11hbfhvk59!19sChIJ__8_Fe4KKDoRKxb_Jk1qNzE?authuser=0&hl=en&rclk=1"
  },
  {
    "name": "Sweetheart Cafe ‚ù§Ô∏è Sarkanda Bilaspur",
    "phone": "7089711616",
    "rating": "4.4",
    "reviews": "42",
    "category": "Coffee shop",
    "address": "Vijaynagar, Sarkanda, Bilaspur, Chhattisgarh 495006",
    "website": "Not found",
    "coordinates": null,
    "plusCode": "35W5+VG Bilaspur, Chhattisgarh",
    "openingHours": "Closed ¬∑ Opens 7‚ÄØam",
    "businessStatus": "Open",
    "priceLevel": "Price range histogram",
    "link": "https://www.google.com/maps/place/Sweetheart+Cafe+%E2%9D%A4%EF%B8%8F+Sarkanda+Bilaspur/data=!4m7!3m6!1s0x3a280bc390f224a9:0xdc0d8bf837670aec!8m2!3d22.0971945!4d82.1588031!16s%2Fg%2F11pv978gnl!19sChIJqSTykMMLKDoR7ApnN_iLDdw?authuser=0&hl=en&rclk=1"
  },
  {
    "name": "Vinayak Cafe",
    "phone": "9340109300",
    "rating": "4.8",
    "reviews": "32",
    "category": "Cafe",
    "address": "Vinayak Cafe, Marwadi Line, Gurumukh Rai Marg, Bilaspur, Gol Bazar, Chhattisgarh 495001",
    "website": "Not found",
    "coordinates": null,
    "plusCode": "35M3+XP Bilaspur, Chhattisgarh",
    "openingHours": "Closed ¬∑ Opens 11‚ÄØam",
    "businessStatus": "Open",
    "priceLevel": "Price range histogram",
    "link": "https://www.google.com/maps/place/Vinayak+Cafe/data=!4m7!3m6!1s0x3a280b4db20dc41b:0xa1c4387ee26f8b71!8m2!3d22.0849474!4d82.1542889!16s%2Fg%2F11tt35l3zc!19sChIJG8QNsk0LKDoRcYtv4n44xKE?authuser=0&hl=en&rclk=1"
  },
  {
    "name": "BHOOKWOK QSR CAFE",
    "phone": "8319887314",
    "rating": "4.7",
    "reviews": "23",
    "category": "Cafe",
    "address": "Ar Arcade, 2, Road, Bhookwok, Tarbahar Chowk, Bilaspur, Chhattisgarh 495004",
    "website": "Not found",
    "coordinates": null,
    "plusCode": "35F6+4V Bilaspur, Chhattisgarh",
    "openingHours": "Not found",
    "businessStatus": "Not found",
    "priceLevel": "Price range histogram",
    "link": "https://www.google.com/maps/place/BHOOKWOK+QSR+CAFE/data=!4m7!3m6!1s0x3a280bda25322209:0x862d9e1bc147c01!8m2!3d22.0728709!4d82.1622188!16s%2Fg%2F11xh2z4qzk!19sChIJCSIyJdoLKDoRAXwUvOHZYgg?authuser=0&hl=en&rclk=1"
  },
  {
    "name": "Coffee & Cue",
    "phone": "Not found",
    "rating": "5.0",
    "reviews": "18",
    "category": "Cafe",
    "address": "Manu Chowk, 2nd floor, R.G Empire building, Bilaspur, Chhattisgarh 495004",
    "website": "Not found",
    "coordinates": null,
    "plusCode": "35C8+VF Bilaspur, Chhattisgarh",
    "openingHours": "Closed ¬∑ Opens 11‚ÄØam",
    "businessStatus": "Open",
    "priceLevel": "Price range histogram",
    "link": "https://www.google.com/maps/place/Coffee+%26+Cue/data=!4m7!3m6!1s0x3a280b75ffe39369:0xb43d0773067bfed2!8m2!3d22.0721307!4d82.1661456!16s%2Fg%2F11yg_ffsxp!19sChIJaZPj_3ULKDoR0v57BnMHPbQ?authuser=0&hl=en&rclk=1"
  },
  {
    "name": "Swad Guru Cafe And Restaurant",
    "phone": "9893355720",
    "rating": "4.8",
    "reviews": "4",
    "category": "Restaurant",
    "address": "Apollo, Near Dayalband Bridge, road, Bilaspur, Chhattisgarh 495006",
    "website": "Not found",
    "coordinates": null,
    "plusCode": "35GG+CC Bilaspur, Chhattisgarh",
    "openingHours": "Closed ¬∑ Opens 9‚ÄØam",
    "businessStatus": "Open",
    "priceLevel": "Price range histogram",
    "link": "https://www.google.com/maps/place/Swad+Guru+Cafe+And+Restaurant/data=!4m7!3m6!1s0x3a280b52cb49a1a1:0xb4851178e026a3dd!8m2!3d22.0760838!4d82.1760877!16s%2Fg%2F11y34jgd9z!19sChIJoaFJy1ILKDoR3aMm4HgRhbQ?authuser=0&hl=en&rclk=1"
  },
  {
    "name": "Cg cafe",
    "phone": "Not found",
    "rating": "5.0",
    "reviews": "1",
    "category": "Coffee shop",
    "address": "35P6+3PM, Juna, Chhattisgarh 495001",
    "website": "Not found",
    "coordinates": null,
    "plusCode": "Not found",
    "openingHours": "Closed ¬∑ Opens 9‚ÄØam",
    "businessStatus": "Open",
    "priceLevel": "Not found",
    "link": "https://www.google.com/maps/place/Cg+cafe/data=!4m7!3m6!1s0x3a280b0079c9c64d:0xd27c219227479700!8m2!3d22.0851717!4d82.1618033!16s%2Fg%2F11xrvsv68y!19sChIJTcbJeQALKDoRAJdHJ5IhfNI?authuser=0&hl=en&rclk=1"
  },
  {
    "name": "Tanishq cafe & Raviraj amrittulya",
    "phone": "9564102058",
    "rating": "5.0",
    "reviews": "3",
    "category": "Cafe",
    "address": "03, near by lingyadih dayalbad pool road, to, RK Nagar Rd, Dayalband, Bilaspur, Chhattisgarh 495006",
    "website": "Not found",
    "coordinates": null,
    "plusCode": "35GG+CC Dayalband, Chhattisgarh",
    "openingHours": "Not found",
    "businessStatus": "Not found",
    "priceLevel": "Not found",
    "link": "https://www.google.com/maps/place/Tanishq+cafe+%26+Raviraj+amrittulya/data=!4m7!3m6!1s0x3a280b53424d592d:0xfa6401136c810f3d!8m2!3d22.0760835!4d82.1760859!16s%2Fg%2F11zjd8rcl3!19sChIJLVlNQlMLKDoRPQ-BbBMBZPo?authuser=0&hl=en&rclk=1"
  },
  {
    "name": "Moksh Cafe",
    "phone": "7999818151",
    "rating": "3.8",
    "reviews": "96",
    "category": "Cafe",
    "address": "35G7+XGV, Karbala Rd, Telipara, Chhattisgarh 495001",
    "website": "Not found",
    "coordinates": null,
    "plusCode": "Not found",
    "openingHours": "Closed ¬∑ Opens 12‚ÄØpm",
    "businessStatus": "Open",
    "priceLevel": "Not found",
    "link": "https://www.google.com/maps/place/Moksh+Cafe/data=!4m7!3m6!1s0x3a280bff467fc887:0x398f933cd4216370!8m2!3d22.0774838!4d82.1638007!16s%2Fg%2F11g0h1sp59!19sChIJh8h_Rv8LKDoRcGMh1DyTjzk?authuser=0&hl=en&rclk=1"
  },
  {
    "name": "Urban Bistro",
    "phone": "8827566790",
    "rating": "3.8",
    "reviews": "831",
    "category": "Restaurant",
    "address": "35C6+WQC, Tagore Rd, Bilaspur, Telipara, Chhattisgarh 495004",
    "website": "instagram.com",
    "coordinates": null,
    "plusCode": "Not found",
    "openingHours": "Closed ¬∑ Opens 10:30‚ÄØam (Confirmed by this business 8 weeks ago)",
    "businessStatus": "Open",
    "priceLevel": "Price range histogram",
    "link": "https://www.google.com/maps/place/Urban+Bistro/data=!4m7!3m6!1s0x3a280b3832c1b737:0x1ee13fd56373bbf3!8m2!3d22.0723362!4d82.1618827!16s%2Fg%2F11sfdb914v!19sChIJN7fBMjgLKDoR87tzY9U_4R4?authuser=0&hl=en&rclk=1"
  },
  {
    "name": "South Caf√®",
    "phone": "9329747959",
    "rating": "4.0",
    "reviews": "726",
    "category": "South Indian restaurant",
    "address": "Old High Court Rd, near Sbi Main Branch, Bilaspur, Telipara, Chhattisgarh 495001",
    "website": "Not found",
    "coordinates": null,
    "plusCode": "35H7+CV Bilaspur, Chhattisgarh",
    "openingHours": "Closed ¬∑ Opens 8:30‚ÄØam",
    "businessStatus": "Open",
    "priceLevel": "Price range histogram",
    "link": "https://www.google.com/maps/place/South+Caf%C3%A8/data=!4m7!3m6!1s0x3a280b1915effb51:0x81f98d86432cd9ad!8m2!3d22.0785764!4d82.1646358!16s%2Fg%2F11b6b4q2zp!19sChIJUfvvFRkLKDoRrdksQ4aN-YE?authuser=0&hl=en&rclk=1"
  },
  {
    "name": "Destination cafe",
    "phone": "8770541712",
    "rating": "3.9",
    "reviews": "828",
    "category": "Cafe",
    "address": "2nd floor, Twin plaza, Telephone Exchange Rd, opposite pc jwellers, Bilaspur, Telipara, Chhattisgarh 495001",
    "website": "Not found",
    "coordinates": null,
    "plusCode": "35G3+J8 Bilaspur, Chhattisgarh",
    "openingHours": "Not found",
    "businessStatus": "Ó¢µClosed ¬∑ Opens 11‚ÄØamSee more hoursÓåï",
    "priceLevel": "Price range histogram",
    "link": "https://www.google.com/maps/place/Destination+cafe/data=!4m7!3m6!1s0x3a280b15b45b35e1:0x2e77d7bbbc5de457!8m2!3d22.076594!4d82.1533036!16s%2Fg%2F11gg5ppp20!19sChIJ4TVbtBULKDoRV-RdvLvXdy4?authuser=0&hl=en&rclk=1"
  },
  {
    "name": "Cafe 36T",
    "phone": "7987190503",
    "rating": "3.9",
    "reviews": "135",
    "category": "Cafe",
    "address": "A-4 Twin Plaza Ground Floor Telephone Exchange Road, Agrasen Chowk, Bilaspur, Chhattisgarh 495001",
    "website": "Not found",
    "coordinates": null,
    "plusCode": "35G3+JG Bilaspur, Chhattisgarh",
    "openingHours": "Closed ¬∑ Opens 11‚ÄØam",
    "businessStatus": "Open",
    "priceLevel": "Price range histogram",
    "link": "https://www.google.com/maps/place/Cafe+36T/data=!4m7!3m6!1s0x3a280b3497a41d69:0xf1fddfdba2c1874!8m2!3d22.07659!4d82.153872!16s%2Fg%2F11qqp5dt0q!19sChIJaR2klzQLKDoRdBgsuv3dHw8?authuser=0&hl=en&rclk=1"
  },
  {
    "name": "Caffino",
    "phone": "7752412245",
    "rating": "4.1",
    "reviews": "699",
    "category": "Cafe",
    "address": "35G2+WRW, Agrasen Chowk, Link Rd, Next to IDBI Bank, Telipara, Chhattisgarh 495001",
    "website": "Not found",
    "coordinates": null,
    "plusCode": "Not found",
    "openingHours": "Closed ¬∑ Opens 10‚ÄØam",
    "businessStatus": "Open",
    "priceLevel": "Price range histogram",
    "link": "https://www.google.com/maps/place/Caffino/data=!4m7!3m6!1s0x3a280b14fa2c42bd:0x60c030bb9e4d5e88!8m2!3d22.0773524!4d82.1520738!16s%2Fg%2F124yhx6ks!19sChIJvUIs-hQLKDoRiF5NnrswwGA?authuser=0&hl=en&rclk=1"
  },
  {
    "name": "FOODCOSTA BILASPUR",
    "phone": "Not found",
    "rating": "4.6",
    "reviews": "19",
    "category": "Cafe",
    "address": "Shop No. 01, Shreeji Plaza, Shiv Talkies Road, below Femina Saloon, opposite Smart Bazaar, Chowk, Bilaspur, Telipara, Chhattisgarh 495004",
    "website": "Not found",
    "coordinates": null,
    "plusCode": "35C6+WQ Bilaspur, Chhattisgarh",
    "openingHours": "Closed ¬∑ Opens 10‚ÄØam",
    "businessStatus": "Open",
    "priceLevel": "Not found",
    "link": "https://www.google.com/maps/place/FOODCOSTA+BILASPUR/data=!4m7!3m6!1s0x3a280b2507cd5c4b:0x43fdb07a45e23e23!8m2!3d22.0723597!4d82.1618817!16s%2Fg%2F11wfhy1b7q!19sChIJS1zNByULKDoRIz7iRXqw_UM?authuser=0&hl=en&rclk=1"
  },
  {
    "name": "HHomeSlice Best Cafe & Bakery",
    "phone": "9993407111",
    "rating": "4.6",
    "reviews": "11",
    "category": "Cafe",
    "address": "Ground Floor, Ambe Anjani E Plaza, 32, CMD Chowk, beside Apollo City Center, Bilaspur, Vidya Nagar, Chhattisgarh 495004",
    "website": "Not found",
    "coordinates": null,
    "plusCode": "35C5+FQ Bilaspur, Chhattisgarh",
    "openingHours": "Closed ¬∑ Opens 10:30‚ÄØam",
    "businessStatus": "Open",
    "priceLevel": "Not found",
    "link": "https://www.google.com/maps/place/HHomeSlice+Best+Cafe+%26+Bakery/data=!4m7!3m6!1s0x3a280bbd5c595a87:0xf75bb38cba297b61!8m2!3d22.0712202!4d82.1594862!16s%2Fg%2F11vsgghqvy!19sChIJh1pZXL0LKDoRYXspuoyzW_c?authuser=0&hl=en&rclk=1"
  },
  {
    "name": "Eden Cafe and Restaurant/Best Cafe in Bilaspur",
    "phone": "9171721747",
    "rating": "4.9",
    "reviews": "150",
    "category": "Restaurant",
    "address": "Eden Cafe and Restaurant, Jarhabhata Rd, near Indu Chowk, Bilaspur, Masanganj, Chhattisgarh 495001",
    "website": "Not found",
    "coordinates": null,
    "plusCode": "34HR+MM Bilaspur, Chhattisgarh",
    "openingHours": "Closed ¬∑ Opens 8‚ÄØam",
    "businessStatus": "Open",
    "priceLevel": "Price range histogram",
    "link": "https://www.google.com/maps/place/Eden+Cafe+and+Restaurant%2FBest+Cafe+in+Bilaspur/data=!4m7!3m6!1s0x3a280bd6df6bc695:0x8cb0242a4a9ab05b!8m2!3d22.0792222!4d82.1416271!16s%2Fg%2F11rg3xbgm1!19sChIJlcZr39YLKDoRW7CaSioksIw?authuser=0&hl=en&rclk=1"
  },
  {
    "name": "Dessert&co",
    "phone": "Not found",
    "rating": "4.8",
    "reviews": "4",
    "category": "Cafe",
    "address": "Savitri Tower, Main Rd, Vypar Vihar, Bilaspur, Chhattisgarh 495001",
    "website": "instagram.com",
    "coordinates": null,
    "plusCode": "35P6+4Q Bilaspur, Chhattisgarh",
    "openingHours": "Closes soon ¬∑ 2‚ÄØam ¬∑ Reopens 11‚ÄØam",
    "businessStatus": "Not found",
    "priceLevel": "Price range histogram",
    "link": "https://www.google.com/maps/place/Dessert%26co/data=!4m7!3m6!1s0x3a280b5d4e4c41c3:0x4b5f74dd259eec55!8m2!3d22.0852701!4d82.1619499!16s%2Fg%2F11xs18kpkl!19sChIJw0FMTl0LKDoRVeyeJd10X0s?authuser=0&hl=en&rclk=1"
  },
  {
    "name": "Jeet Travels",
    "phone": "8435222211",
    "rating": "5.0",
    "reviews": "11",
    "category": "Grocery store",
    "address": "25, Road, Vasant Vihar, Bilaspur, Rajkishore Nagar, Chhattisgarh 495006",
    "website": "Not found",
    "coordinates": null,
    "plusCode": "35QJ+5F Bilaspur, Chhattisgarh",
    "openingHours": "Not found",
    "businessStatus": "Not found",
    "priceLevel": "Not found",
    "link": "https://www.google.com/maps/place/Jeet+Travels/data=!4m7!3m6!1s0x3a280b26b4320257:0x9b3304e4f7ae4ff0!8m2!3d22.0879181!4d82.1812383!16s%2Fg%2F11tmkzd9q2!19sChIJVwIytCYLKDoR8E-u9-QEM5s?authuser=0&hl=en&rclk=1"
  },
  {
    "name": "TeaMax Cafe Sarkanda Bilaspur",
    "phone": "9425184828",
    "rating": "4.5",
    "reviews": "10",
    "category": "Cafe",
    "address": "Near Mark Hospital, beside Kamlashree Enclave Muktidham Road, Kapil Nagar, Sarkanda, Bilaspur, Chhattisgarh 495006",
    "website": "teamaxcafe.in",
    "coordinates": null,
    "plusCode": "35W3+FP Bilaspur, Chhattisgarh",
    "openingHours": "Closed ¬∑ Opens 11‚ÄØam",
    "businessStatus": "Open",
    "priceLevel": "Price range histogram",
    "link": "https://www.google.com/maps/place/TeaMax+Cafe+Sarkanda+Bilaspur/data=!4m7!3m6!1s0x3a280b65ec8d40b7:0x887b6a6a76a16612!8m2!3d22.0961376!4d82.1542871!16s%2Fg%2F11k4t_khj9!19sChIJt0CN7GULKDoREmahdmpqe4g?authuser=0&hl=en&rclk=1"
  },
  {
    "name": "Chill Out Cafe & Restaurant",
    "phone": "8982950364",
    "rating": "4.7",
    "reviews": "131",
    "category": "North Indian restaurant",
    "address": "opposite Maosaji Honda Showroom, Seepat Rd, Sarkanda, Bilaspur, Chhattisgarh 495006",
    "website": "Not found",
    "coordinates": null,
    "plusCode": "34XW+6C Bilaspur, Chhattisgarh",
    "openingHours": "Closed ¬∑ Opens 11‚ÄØam",
    "businessStatus": "Open",
    "priceLevel": "Price range histogram",
    "link": "https://www.google.com/maps/place/Chill+Out+Cafe+%26+Restaurant/data=!4m7!3m6!1s0x3a280b3cc0e1e10d:0x3c76495e1f01201f!8m2!3d22.0980917!4d82.1460815!16s%2Fg%2F11l5tgg2k8!19sChIJDeHhwDwLKDoRHyABH15Jdjw?authuser=0&hl=en&rclk=1"
  },
  {
    "name": "Persian Tea & Cafe",
    "phone": "Not found",
    "rating": "4.0",
    "reviews": "17",
    "category": "Coffee shop",
    "address": "35C4+XX4, Link Rd, Bilaspur, Vidya Nagar, Chhattisgarh 495004",
    "website": "Not found",
    "coordinates": null,
    "plusCode": "Not found",
    "openingHours": "Closed ¬∑ Opens 5‚ÄØam",
    "businessStatus": "Open",
    "priceLevel": "Price range histogram",
    "link": "https://www.google.com/maps/place/Persian+Tea+%26+Cafe/data=!4m7!3m6!1s0x3a280b0028f4fc1f:0xac9a937468605943!8m2!3d22.0723884!4d82.1574612!16s%2Fg%2F11wp769fy_!19sChIJH_z0KAALKDoRQ1lgaHSTmqw?authuser=0&hl=en&rclk=1"
  },
  {
    "name": "Goldy Chai Palace",
    "phone": "Not found",
    "rating": "4.4",
    "reviews": "24",
    "category": "Cafe",
    "address": "Seepat Rd, Sarkanda, Bilaspur, Fadahakhar, Chhattisgarh 495006",
    "website": "Not found",
    "coordinates": null,
    "plusCode": "35W9+F3 Bilaspur, Chhattisgarh",
    "openingHours": "Closed ¬∑ Opens 7:30‚ÄØam",
    "businessStatus": "Open",
    "priceLevel": "Not found",
    "link": "https://www.google.com/maps/place/Goldy+Chai+Palace/data=!4m7!3m6!1s0x3a280b00ef27e1f7:0xe36279e7162827cd!8m2!3d22.0962385!4d82.1676667!16s%2Fg%2F11f3n2vntj!19sChIJ9-En7wALKDoRzScoFud5YuM?authuser=0&hl=en&rclk=1"
  },
  {
    "name": "Sky Treat cafe and restaurant",
    "phone": "Not found",
    "rating": "Not found",
    "reviews": "Not found",
    "category": "Family restaurant",
    "address": "Infront of deka automobiles, Chingrajpara, Bilaspur, Chhattisgarh 495006",
    "website": "Not found",
    "coordinates": null,
    "plusCode": "35VC+8J Bilaspur, Chhattisgarh",
    "openingHours": "Closed ¬∑ Opens 8‚ÄØam (Updated by this business 1 week ago)",
    "businessStatus": "Open",
    "priceLevel": "Not found",
    "link": "https://www.google.com/maps/place/Sky+Treat+cafe+and+restaurant/data=!4m7!3m6!1s0x3a280bf5654799b7:0xc46f525ff935e972!8m2!3d22.0932722!4d82.1715376!16s%2Fg%2F11zkp28g0p!19sChIJt5lHZfULKDoRcuk1-V9Sb8Q?authuser=0&hl=en&rclk=1"
  },
  {
    "name": "Relax Point",
    "phone": "6266058702",
    "rating": "4.5",
    "reviews": "2",
    "category": "Cafe",
    "address": "35G9, Bilaspur Rd, Chowk, Dayalband, Bilaspur, Chhattisgarh 495001",
    "website": "Not found",
    "coordinates": null,
    "plusCode": "35G9+7P Dayalband, Chhattisgarh",
    "openingHours": "Not found",
    "businessStatus": "Not found",
    "priceLevel": "Not found",
    "link": "https://www.google.com/maps/place/Relax+Point/data=!4m7!3m6!1s0x3a280bc7b7014ed1:0xd5910df7ad1f1bee!8m2!3d22.0757269!4d82.1693555!16s%2Fg%2F11vkk1vf7c!19sChIJ0U4Bt8cLKDoR7hsfrfcNkdU?authuser=0&hl=en&rclk=1"
  },
  {
    "name": "THE STREET CAFE",
    "phone": "6266853235",
    "rating": "5.0",
    "reviews": "1",
    "category": "Cafe",
    "address": "02, near by Green Zone, Rajkishore Nagar, Bilaspur, Chhattisgarh 495001",
    "website": "Not found",
    "coordinates": null,
    "plusCode": "35FR+RX Rajkishore Nagar, Chhattisgarh",
    "openingHours": "Not found",
    "businessStatus": "Not found",
    "priceLevel": "Not found",
    "link": "https://www.google.com/maps/place/THE+STREET+CAFE/data=!4m7!3m6!1s0x3a280b4edd5cf2f9:0x548fa957708091a!8m2!3d22.0745145!4d82.1924939!16s%2Fg%2F11xn1h49l2!19sChIJ-fJc3U4LKDoRGgkId5X6SAU?authuser=0&hl=en&rclk=1"
  },
  {
    "name": "Hangover Cafe",
    "phone": "Not found",
    "rating": "4.3",
    "reviews": "20",
    "category": "Cafe",
    "address": "Shop no. 36 1st floor, CG Plaza, Agrasen Chowk, Bilaspur, 495001",
    "website": "Not found",
    "coordinates": null,
    "plusCode": "35G3+R8 Bilaspur, Chhattisgarh",
    "openingHours": "Closed ¬∑ Opens 10‚ÄØam",
    "businessStatus": "Open",
    "priceLevel": "Not found",
    "link": "https://www.google.com/maps/place/Hangover+Cafe/data=!4m7!3m6!1s0x3a280bf55b39eedb:0x560c92c635ba1f8a!8m2!3d22.0770781!4d82.153341!16s%2Fg%2F11k0mt1p3m!19sChIJ2-45W_ULKDoRih-6NcaSDFY?authuser=0&hl=en&rclk=1"
  },
  {
    "name": "DZERTA",
    "phone": "7784999990",
    "rating": "4.1",
    "reviews": "45",
    "category": "Cafe",
    "address": "CMD Chowk, Vidya Nagar, Telipara, Chhattisgarh 495001",
    "website": "Not found",
    "coordinates": null,
    "plusCode": "35C5+W6 Vidya Nagar, Chhattisgarh",
    "openingHours": "Closed ¬∑ Opens 11‚ÄØam",
    "businessStatus": "Open",
    "priceLevel": "Price range histogram",
    "link": "https://www.google.com/maps/place/DZERTA/data=!4m7!3m6!1s0x3a280bde8df91b53:0x39b478bd30273340!8m2!3d22.0723151!4d82.1581045!16s%2Fg%2F11kj4yb5ly!19sChIJUxv5jd4LKDoRQDMnML14tDk?authuser=0&hl=en&rclk=1"
  },
  {
    "name": "THE THIRD SPACE - BOARDGAME CAFE",
    "phone": "Not found",
    "rating": "4.8",
    "reviews": "53",
    "category": "Cafe",
    "address": "Vyapar Vihar Rd, above malwa Tvs showroom, in front of elite hospital, Bilaspur, Vypar Vihar, Chhattisgarh 495001",
    "website": "Not found",
    "coordinates": null,
    "plusCode": "349X+43 Bilaspur, Chhattisgarh",
    "openingHours": "Closed ¬∑ Opens 2‚ÄØpm",
    "businessStatus": "Open",
    "priceLevel": "Price range histogram",
    "link": "https://www.google.com/maps/place/THE+THIRD+SPACE+-+BOARDGAME+CAFE/data=!4m7!3m6!1s0x3a280b002685d12d:0xa8ab63777a5e7249!8m2!3d22.0678084!4d82.1476466!16s%2Fg%2F11xl1w8pnw!19sChIJLdGFJgALKDoRSXJeendjq6g?authuser=0&hl=en&rclk=1"
  },
  {
    "name": "Mini Cafe",
    "phone": "7093230620",
    "rating": "5.0",
    "reviews": "1",
    "category": "Cafe",
    "address": "1, near by Dipipara, Bilaspur, Chhattisgarh 495004",
    "website": "Not found",
    "coordinates": null,
    "plusCode": "3585+H4 Bilaspur, Chhattisgarh",
    "openingHours": "Not found",
    "businessStatus": "Not found",
    "priceLevel": "Not found",
    "link": "https://www.google.com/maps/place/Mini+Cafe/data=!4m7!3m6!1s0x3a280b3a03d2d309:0xde5cedf5219c89da!8m2!3d22.0664769!4d82.1577935!16s%2Fg%2F11xckyqhc2!19sChIJCdPSAzoLKDoR2omcIfXtXN4?authuser=0&hl=en&rclk=1"
  },
  {
    "name": "QUALITY CHAI",
    "phone": "9584755395",
    "rating": "5.0",
    "reviews": "2",
    "category": "Coffee shop",
    "address": "Bilaspur, Telipara, Chhattisgarh 495001",
    "website": "Not found",
    "coordinates": null,
    "plusCode": "35F7+H3 Bilaspur, Chhattisgarh",
    "openingHours": "Not found",
    "businessStatus": "Not found",
    "priceLevel": "Not found",
    "link": "https://www.google.com/maps/place/QUALITY+CHAI/data=!4m7!3m6!1s0x3a280ba37f79779b:0xf5ec8490bf7b509e!8m2!3d22.0739173!4d82.16269!16s%2Fg%2F11xknnjl2z!19sChIJm3d5f6MLKDoRnlB7v5CE7PU?authuser=0&hl=en&rclk=1"
  },
  {
    "name": "ùêÉùêëùêÑùêÄùêå ùêäùêàùêìùêÇùêáùêÑùêç Cafe and Restaurant",
    "phone": "7987171320",
    "rating": "5.0",
    "reviews": "4",
    "category": "Chinese restaurant",
    "address": "Old High Court Rd, beside DP Vipra college, Tikrapara, Bilaspur, Chhattisgarh 495001",
    "website": "instagram.com",
    "coordinates": null,
    "plusCode": "35G7+4G Bilaspur, Chhattisgarh",
    "openingHours": "Closed ¬∑ Opens 8:30‚ÄØam",
    "businessStatus": "Open",
    "priceLevel": "Not found",
    "link": "https://www.google.com/maps/place/%F0%9D%90%83%F0%9D%90%91%F0%9D%90%84%F0%9D%90%80%F0%9D%90%8C+%F0%9D%90%8A%F0%9D%90%88%F0%9D%90%93%F0%9D%90%82%F0%9D%90%87%F0%9D%90%84%F0%9D%90%8D+Cafe+and+Restaurant/data=!4m7!3m6!1s0x3a280b000a225a9f:0xfa9c56fe0d0266a8!8m2!3d22.0752991!4d82.1637563!16s%2Fg%2F11vsh_z4yk!19sChIJn1oiCgALKDoRqGYCDf5WnPo?authuser=0&hl=en&rclk=1"
  },
  {
    "name": "Cafe Arena",
    "phone": "6265581345",
    "rating": "3.5",
    "reviews": "37",
    "category": "Cafe",
    "address": "Cafe arena, Lalkhadan Overbridge, near hotel red diamond, Torwa, Bilaspur, Chhattisgarh 495004",
    "website": "Not found",
    "coordinates": null,
    "plusCode": "354R+5M Bilaspur, Chhattisgarh",
    "openingHours": "Open 24 hours",
    "businessStatus": "Open",
    "priceLevel": "Not found",
    "link": "https://www.google.com/maps/place/Cafe+Arena/data=!4m7!3m6!1s0x3a280b000406b807:0x7fb02f072ba5e7ba!8m2!3d22.0554578!4d82.1917448!16s%2Fg%2F11w7s4p922!19sChIJB7gGBAALKDoRuuelKwcvsH8?authuser=0&hl=en&rclk=1"
  },
  {
    "name": "Kings Park Cafe",
    "phone": "9522222042",
    "rating": "4.2",
    "reviews": "342",
    "category": "Cafe",
    "address": "Civil Lines, Bilaspur, Masanganj, Chhattisgarh 495001",
    "website": "Not found",
    "coordinates": null,
    "plusCode": "34JV+38 Bilaspur, Chhattisgarh",
    "openingHours": "Closed ¬∑ Opens 8:30‚ÄØam",
    "businessStatus": "Open",
    "priceLevel": "Price range histogram",
    "link": "https://www.google.com/maps/place/Kings+Park+Cafe/data=!4m7!3m6!1s0x3a280b6ebbee4301:0xa08a20c24f6772b5!8m2!3d22.0802317!4d82.1432514!16s%2Fg%2F11f106p12c!19sChIJAUPuu24LKDoRtXJnT8IgiqA?authuser=0&hl=en&rclk=1"
  },
  {
    "name": "ZOOM COMPUTER",
    "phone": "9300854455",
    "rating": "4.4",
    "reviews": "15",
    "category": "Cafe",
    "address": "35CF+8FV, Tikrapara, Bilaspur, Chhattisgarh 495004",
    "website": "Not found",
    "coordinates": null,
    "plusCode": "Not found",
    "openingHours": "Closed ¬∑ Opens 10‚ÄØam",
    "businessStatus": "Open",
    "priceLevel": "Not found",
    "link": "https://www.google.com/maps/place/ZOOM+COMPUTER/data=!4m7!3m6!1s0x3a280b48768de5c3:0xa7df89e1cabc82fb!8m2!3d22.0708703!4d82.1736671!16s%2Fg%2F11g1ktky7p!19sChIJw-WNdkgLKDoR-4K8yuGJ36c?authuser=0&hl=en&rclk=1"
  },
  {
    "name": "AROGYA AMRUTULYA",
    "phone": "8668811879",
    "rating": "3.1",
    "reviews": "15",
    "category": "Cafe",
    "address": "Old High Court Rd, near sbi main branch vihari talkies, gandhi chowk, Bilaspur, Telipara, Chhattisgarh 495001",
    "website": "arogyaamruttulya.in",
    "coordinates": null,
    "plusCode": "35H7+7Q Bilaspur, Chhattisgarh",
    "openingHours": "Closed ¬∑ Opens 7‚ÄØam",
    "businessStatus": "Open",
    "priceLevel": "Not found",
    "link": "https://www.google.com/maps/place/AROGYA+AMRUTULYA/data=!4m7!3m6!1s0x3a280b39d659ebed:0x4e48fa5ef75f4551!8m2!3d22.0781671!4d82.1644271!16s%2Fg%2F11pdwdhlmy!19sChIJ7etZ1jkLKDoRUUVf9176SE4?authuser=0&hl=en&rclk=1"
  },
  {
    "name": "New Dewangan BHEL",
    "phone": "8462067771",
    "rating": "5.0",
    "reviews": "1",
    "category": "Cafe",
    "address": "Shop No 1, Bus Stand, Bilaspur, Telipara, Chhattisgarh 495001",
    "website": "Not found",
    "coordinates": null,
    "plusCode": "35H6+RQ Bilaspur, Chhattisgarh",
    "openingHours": "Not found",
    "businessStatus": "Not found",
    "priceLevel": "Not found",
    "link": "https://www.google.com/maps/place/New+Dewangan+BHEL/data=!4m7!3m6!1s0x3a280b4b40c1a3f1:0xba04511945cbcd4e!8m2!3d22.0796085!4d82.161941!16s%2Fg%2F11zhlmq0xl!19sChIJ8aPBQEsLKDoRTs3LRRlRBLo?authuser=0&hl=en&rclk=1"
  },
  {
    "name": "TeaMax Cafe Bilaspur",
    "phone": "7047505158",
    "rating": "4.6",
    "reviews": "123",
    "category": "Cafe",
    "address": "Tiranga Chowk, SH7, Balram Talkies Road, near Padmashree Shyamlal Chaturvedi Smart Road, Sindhi Colony, Bilaspur, Chhattisgarh 495001",
    "website": "instagram.com",
    "coordinates": null,
    "plusCode": "34PP+52 Bilaspur, Chhattisgarh",
    "openingHours": "Closed ¬∑ Opens 12‚ÄØpm",
    "businessStatus": "Open",
    "priceLevel": "Price range histogram",
    "link": "https://www.google.com/maps/place/TeaMax+Cafe+Bilaspur/data=!4m7!3m6!1s0x3a280bbbd82ba185:0xc1350aad24ba3c5d!8m2!3d22.0853879!4d82.1350754!16s%2Fg%2F11ldx25_z4!19sChIJhaEr2LsLKDoRXTy6JK0KNcE?authuser=0&hl=en&rclk=1"
  },
  {
    "name": "Dhaba Cafe Bilaspur",
    "phone": "Not found",
    "rating": "3.7",
    "reviews": "37",
    "category": "Cafe",
    "address": "Kachwaha Complex, Seepat Chowk, New Sarkanda, Sarkanda, Bilaspur, Chhattisgarh 495006",
    "website": "Not found",
    "coordinates": null,
    "plusCode": "34WW+33 Bilaspur, Chhattisgarh",
    "openingHours": "Closed ¬∑ Opens 10:30‚ÄØam",
    "businessStatus": "Open",
    "priceLevel": "Price range histogram",
    "link": "https://www.google.com/maps/place/Dhaba+Cafe+Bilaspur/data=!4m7!3m6!1s0x3a280b39451ced8b:0x15ecb879d4ec1ab5!8m2!3d22.0951487!4d82.1452468!16s%2Fg%2F11vc0yd4mc!19sChIJi-0cRTkLKDoRtRrs1Hm47BU?authuser=0&hl=en&rclk=1"
  },
  {
    "name": "E¬≥ Studio Gaming & Cafe",
    "phone": "Not found",
    "rating": "4.3",
    "reviews": "6",
    "category": "Cafe",
    "address": "Agrasen Chowk, Bilaspur, Telipara, Chhattisgarh 495001",
    "website": "Not found",
    "coordinates": null,
    "plusCode": "35G2+RV Bilaspur, Chhattisgarh",
    "openingHours": "Closed ¬∑ Opens 9‚ÄØam",
    "businessStatus": "Open",
    "priceLevel": "Not found",
    "link": "https://www.google.com/maps/place/E%C2%B3+Studio+Gaming+%26+Cafe/data=!4m7!3m6!1s0x3a280b408c861f55:0x3c18df8f41edea33!8m2!3d22.0770787!4d82.1521903!16s%2Fg%2F11s4c2c_r4!19sChIJVR-GjEALKDoRM-rtQY_fGDw?authuser=0&hl=en&rclk=1"
  },
  {
    "name": "Happiest Delite Cafe",
    "phone": "Not found",
    "rating": "Not found",
    "reviews": "Not found",
    "category": "Cafe",
    "address": "Old High Court Rd, opposite Bihari Talkies, Bilaspur, Telipara, Chhattisgarh 495001",
    "website": "instagram.com",
    "coordinates": null,
    "plusCode": "35H7+FV Bilaspur, Chhattisgarh",
    "openingHours": "Not found",
    "businessStatus": "Ó¢µClosed ¬∑ Opens 7:30‚ÄØamUpdated by this business 5 weeks agoSee more hoursÓåï",
    "priceLevel": "Not found",
    "link": "https://www.google.com/maps/place/Happiest+Delite+Cafe/data=!4m7!3m6!1s0x3a280b05405a6c87:0xa146655561828bb8!8m2!3d22.0787219!4d82.1646558!16s%2Fg%2F11ydccj6xh!19sChIJh2xaQAULKDoRuIuCYVVlRqE?authuser=0&hl=en&rclk=1"
  },
  {
    "name": "Kodu Hotell",
    "phone": "Not found",
    "rating": "3.1",
    "reviews": "25",
    "category": "Cafe",
    "address": "35H7+X5P, Karbala Rd, Bharti Nagar, Nehru Nagar, Telipara, Juna, Chhattisgarh 495001",
    "website": "Not found",
    "coordinates": null,
    "plusCode": "Not found",
    "openingHours": "Closed ¬∑ Opens 8‚ÄØam",
    "businessStatus": "Open",
    "priceLevel": "Not found",
    "link": "https://www.google.com/maps/place/Kodu+Hotell/data=!4m7!3m6!1s0x3a280b19815b5cb7:0x888bc721b16f6de4!8m2!3d22.0799634!4d82.1629547!16s%2Fg%2F11c7pcs3n0!19sChIJt1xbgRkLKDoR5G1vsSHHi4g?authuser=0&hl=en&rclk=1"
  },
  {
    "name": "Zoop Cafe Bilaspur",
    "phone": "8871595360",
    "rating": "4.7",
    "reviews": "3",
    "category": "Cafe",
    "address": "Link Rd, near axis Bank, Rajendra Nagar, Chowk, Bilaspur, Masanganj, Chhattisgarh 495001",
    "website": "Not found",
    "coordinates": null,
    "plusCode": "34MV+G7 Bilaspur, Chhattisgarh",
    "openingHours": "Closed ¬∑ Opens 11‚ÄØam",
    "businessStatus": "Open",
    "priceLevel": "Not found",
    "link": "https://www.google.com/maps/place/Zoop+Cafe+Bilaspur/data=!4m7!3m6!1s0x3a280b588b6cfb7f:0xe665b4415806a0f!8m2!3d22.0837901!4d82.1431548!16s%2Fg%2F11s7z_5c2q!19sChIJf_tsi1gLKDoRD2qAFURbZg4?authuser=0&hl=en&rclk=1"
  },
  {
    "name": "Highway King Chai And Coffee",
    "phone": "9770001043",
    "rating": "4.0",
    "reviews": "10",
    "category": "Coffee shop",
    "address": "Tarbahar Chowk, Bilaspur, Chhattisgarh 495004",
    "website": "Not found",
    "coordinates": null,
    "plusCode": "3596+VR Bilaspur, Chhattisgarh",
    "openingHours": "Closed ¬∑ Opens 9‚ÄØam",
    "businessStatus": "Open",
    "priceLevel": "Not found",
    "link": "https://www.google.com/maps/place/Highway+King+Chai+And+Coffee/data=!4m7!3m6!1s0x3a280b73ae85f6fb:0x78c5a31552074222!8m2!3d22.0696587!4d82.1620742!16s%2Fg%2F11k3f1p1yn!19sChIJ-_aFrnMLKDoRIkIHUhWjxXg?authuser=0&hl=en&rclk=1"
  },
  {
    "name": "Juice N Joy Cafe",
    "phone": "Not found",
    "rating": "4.8",
    "reviews": "160",
    "category": "Cafe",
    "address": "Mangla Chowk, bus stop, Sen Marg, opposite Real Heavens, Mangla, Bilaspur, Chhattisgarh 495001",
    "website": "instagram.com",
    "coordinates": null,
    "plusCode": "34RG+J5 Bilaspur, Chhattisgarh",
    "openingHours": "Closed ¬∑ Opens 10‚ÄØam",
    "businessStatus": "Open",
    "priceLevel": "Price range histogram",
    "link": "https://www.google.com/maps/place/Juice+N+Joy+Cafe/data=!4m7!3m6!1s0x3a280d7cb2265645:0x33186b42bb92b7d3!8m2!3d22.0915068!4d82.125478!16s%2Fg%2F11xf_9q2m5!19sChIJRVYmsnwNKDoR07eSu0JrGDM?authuser=0&hl=en&rclk=1"
  },
  {
    "name": "Pizza point & Cafe",
    "phone": "7974423644",
    "rating": "3.0",
    "reviews": "2",
    "category": "Cafe",
    "address": "Seepat chowk, near modern educational academy, New Sarkanda, Sarkanda, Bilaspur, Chhattisgarh 495006",
    "website": "Not found",
    "coordinates": null,
    "plusCode": "34VW+VV Bilaspur, Chhattisgarh",
    "openingHours": "Open ¬∑ Closes 9:30‚ÄØpm",
    "businessStatus": "Open",
    "priceLevel": "Not found",
    "link": "https://www.google.com/maps/place/Pizza+point+%26+Cafe/data=!4m7!3m6!1s0x3a280b12183df19f:0x9ae7c6e027827d08!8m2!3d22.0947186!4d82.1471404!16s%2Fg%2F11wg7rcx8c!19sChIJn_E9GBILKDoRCH2CJ-DG55o?authuser=0&hl=en&rclk=1"
  },
  {
    "name": "Devaangan BHEL",
    "phone": "9770576667",
    "rating": "2.0",
    "reviews": "1",
    "category": "Cafe",
    "address": "Hanuman Mandir Ke Samne, BUS STAND, Shop No 03 Old, Bilaspur, Chhattisgarh 495001",
    "website": "Not found",
    "coordinates": null,
    "plusCode": "35G5+4C Bilaspur, Chhattisgarh",
    "openingHours": "Not found",
    "businessStatus": "Not found",
    "priceLevel": "Not found",
    "link": "https://www.google.com/maps/place/Devaangan+BHEL/data=!4m7!3m6!1s0x3a280bf25d8540c7:0xe66ef1deac39966!8m2!3d22.075359!4d82.1585581!16s%2Fg%2F11xvcm9lpn!19sChIJx0CFXfILKDoRZpnD6h3vZg4?authuser=0&hl=en&rclk=1"
  },
  {
    "name": "Laziz Pizza",
    "phone": "7803850341",
    "rating": "3.9",
    "reviews": "15",
    "category": "Cafe",
    "address": "rajiv plaza, opposite Axis bank, Bilaspur, Telipara, Chhattisgarh 495001",
    "website": "Not found",
    "coordinates": null,
    "plusCode": "35F5+XR Bilaspur, Chhattisgarh",
    "openingHours": "Closed ¬∑ Opens 12‚ÄØpm",
    "businessStatus": "Open",
    "priceLevel": "Price range histogram",
    "link": "https://www.google.com/maps/place/Laziz+Pizza/data=!4m7!3m6!1s0x3a280d290055a06d:0xe972457e47aa3dee!8m2!3d22.0748969!4d82.1595636!16s%2Fg%2F11y7c42p25!19sChIJbaBVACkNKDoR7j2qR35Fcuk?authuser=0&hl=en&rclk=1"
  },
  {
    "name": "King Cafe",
    "phone": "Not found",
    "rating": "4.0",
    "reviews": "25",
    "category": "Cafe",
    "address": "34cvmf7, near Balmukund High.Sec. School, Talapara, Bilaspur, Chhattisgarh 495001",
    "website": "Not found",
    "coordinates": null,
    "plusCode": "34CV+JC Bilaspur, Chhattisgarh",
    "openingHours": "Closed ¬∑ Opens 10:30‚ÄØam",
    "businessStatus": "Open",
    "priceLevel": "Not found",
    "link": "https://www.google.com/maps/place/King+Cafe/data=!4m7!3m6!1s0x3a280b4247610813:0xc70045d4a0e4ca4!8m2!3d22.0715419!4d82.1435532!16s%2Fg%2F1hm69l7qc!19sChIJEwhhR0ILKDoRpEwOSl0EcAw?authuser=0&hl=en&rclk=1"
  },
  {
    "name": "Cafe Platonic",
    "phone": "7389221177",
    "rating": "3.9",
    "reviews": "35",
    "category": "Coffee shop",
    "address": "Ring Road, No.2, Shanti Nagar, Bilaspur, Chhattisgarh 495001",
    "website": "Not found",
    "coordinates": null,
    "plusCode": "34PG+GC Shanti Nagar, Chhattisgarh",
    "openingHours": "Closed ¬∑ Opens 11‚ÄØam",
    "businessStatus": "Open",
    "priceLevel": "Price range histogram",
    "link": "https://www.google.com/maps/place/Cafe+Platonic/data=!4m7!3m6!1s0x3a280d0063ece0e7:0x44ed4d43a89b18df!8m2!3d22.0862513!4d82.1260975!16s%2Fg%2F11wtn0z3p7!19sChIJ5-DsYwANKDoR3xibqENN7UQ?authuser=0&hl=en&rclk=1"
  },
  {
    "name": "Aao aur khao cafe",
    "phone": "Not found",
    "rating": "5.0",
    "reviews": "1",
    "category": "Cafe",
    "address": "gate number 2, ke pass, Mungeli Rd, Minocha Colony, Bilaspur, Chhattisgarh 495001",
    "website": "Not found",
    "coordinates": null,
    "plusCode": "34V9+RQ Bilaspur, Chhattisgarh",
    "openingHours": "Not found",
    "businessStatus": "Not found",
    "priceLevel": "Not found",
    "link": "https://www.google.com/maps/place/Aao+aur+khao+cafe/data=!4m7!3m6!1s0x3a280d003866462b:0xe9b16c836f3e50d1!8m2!3d22.0945815!4d82.1194671!16s%2Fg%2F11w3h_19jg!19sChIJK0ZmOAANKDoR0VA-b4Nssek?authuser=0&hl=en&rclk=1"
  },
  {
    "name": "Hacker's Cafe",
    "phone": "9294687295",
    "rating": "5.0",
    "reviews": "1",
    "category": "Cafe",
    "address": "01 B, 10satvik Ratanpur Road, Kanchan Vihar, Koni, Bilaspur, Chhattisgarh 495009",
    "website": "Not found",
    "coordinates": null,
    "plusCode": "44FJ+5F Bilaspur, Chhattisgarh",
    "openingHours": "Not found",
    "businessStatus": "Not found",
    "priceLevel": "Not found",
    "link": "https://www.google.com/maps/place/Hacker%27s+Cafe/data=!4m7!3m6!1s0x3a280be833a1c9ed:0x2405fd5353ead66!8m2!3d22.1229035!4d82.1311702!16s%2Fg%2F11xrfmhr4n!19sChIJ7cmhM-gLKDoRZq0-NdVfQAI?authuser=0&hl=en&rclk=1"
  },
  {
    "name": "Sharma Chai",
    "phone": "8817611624",
    "rating": "3.5",
    "reviews": "234",
    "category": "Cafe",
    "address": "Koni, Bilaspur, Chhattisgarh 495009",
    "website": "Not found",
    "coordinates": null,
    "plusCode": "44GJ+R3 Bilaspur, Chhattisgarh",
    "openingHours": "Not found",
    "businessStatus": "Not found",
    "priceLevel": "Not found",
    "link": "https://www.google.com/maps/place/Sharma+Chai/data=!4m7!3m6!1s0x3a280bb8b56f6f49:0x2c5b56c85a80d327!8m2!3d22.1270635!4d82.1301901!16s%2Fg%2F11sc0h7gh_!19sChIJSW9vtbgLKDoRJ9OAWshWWyw?authuser=0&hl=en&rclk=1"
  },
  {
    "name": "Cafe 3 joker's",
    "phone": "9174057208",
    "rating": "5.0",
    "reviews": "1",
    "category": "Cafe",
    "address": "hanuman mandir ke pass, Yadunandan Nagar, Tifra, Bilaspur, Chhattisgarh 495001",
    "website": "Not found",
    "coordinates": null,
    "plusCode": "348G+6P Bilaspur, Chhattisgarh",
    "openingHours": "Closed ¬∑ Opens 12‚ÄØpm",
    "businessStatus": "Open",
    "priceLevel": "Not found",
    "link": "https://www.google.com/maps/place/Cafe+3+joker%27s/data=!4m7!3m6!1s0x3a280b5a69e56b09:0x38d215f4691703ae!8m2!3d22.0655905!4d82.126849!16s%2Fg%2F11snt24w8p!19sChIJCWvlaVoLKDoRrgMXafQV0jg?authuser=0&hl=en&rclk=1"
  },
  {
    "name": "CAFE 360",
    "phone": "Not found",
    "rating": "4.1",
    "reviews": "39",
    "category": "Cafe",
    "address": "in-front of GEC, Badi Koni, Bilaspur, Chhattisgarh 495009",
    "website": "Not found",
    "coordinates": null,
    "plusCode": "44PF+2W Bilaspur, Chhattisgarh",
    "openingHours": "Closed ¬∑ Opens 10:30‚ÄØam",
    "businessStatus": "Open",
    "priceLevel": "Price range histogram",
    "link": "https://www.google.com/maps/place/CAFE+360/data=!4m7!3m6!1s0x3a280de94d927295:0x2b3e1256f0e740da!8m2!3d22.1350244!4d82.1248048!16s%2Fg%2F11l31vpt_n!19sChIJlXKSTekNKDoR2kDn8FYSPis?authuser=0&hl=en&rclk=1"
  },
  {
    "name": "Black Bubble Tea Cafe koni",
    "phone": "8319376571",
    "rating": "4.3",
    "reviews": "258",
    "category": "Tea house",
    "address": "Koni, Bilaspur, Chhattisgarh 495009",
    "website": "blackbubbleteacafekoni.com",
    "coordinates": null,
    "plusCode": "44HH+4Q Bilaspur, Chhattisgarh",
    "openingHours": "Closed ¬∑ Opens 1‚ÄØpm",
    "businessStatus": "Open",
    "priceLevel": "Not found",
    "link": "https://www.google.com/maps/place/Black+Bubble+Tea+Cafe+koni/data=!4m7!3m6!1s0x3a280b9f3f2f4cf1:0x1cb3d3d7ac90678b!8m2!3d22.1277693!4d82.1294478!16s%2Fg%2F11frrw70t1!19sChIJ8UwvP58LKDoRi2eQrNfTsxw?authuser=0&hl=en&rclk=1"
  },
  {
    "name": "Home's Cafe",
    "phone": "Not found",
    "rating": "4.4",
    "reviews": "8",
    "category": "Cafe",
    "address": "near Masjid Chowk, Brij Vihar Nagar, Rajkishore Nagar, Chhattisgarh 495006",
    "website": "Not found",
    "coordinates": null,
    "plusCode": "35HM+F9 Rajkishore Nagar, Chhattisgarh",
    "openingHours": "Temporarily closed",
    "businessStatus": "Not found",
    "priceLevel": "Not found",
    "link": "https://www.google.com/maps/place/Home%27s+Cafe/data=!4m7!3m6!1s0x3a280b9b6a61571b:0x12ef6ab7a44ec207!8m2!3d22.0786879!4d82.1834046!16s%2Fg%2F11ncm110wx!19sChIJG1dhapsLKDoRB8JOpLdq7xI?authuser=0&hl=en&rclk=1"
  },
  {
    "name": "Kairos Cafe",
    "phone": "Not found",
    "rating": "3.7",
    "reviews": "192",
    "category": "Cafe",
    "address": "Shop No 201, 1st Floor, Landmark Complex, Karbala Road, Near, Purana Bus Stand Chowk, Telipara, Chhattisgarh 495001",
    "website": "Not found",
    "coordinates": null,
    "plusCode": "35G5+GR Telipara, Chhattisgarh",
    "openingHours": "Temporarily closed",
    "businessStatus": "Not found",
    "priceLevel": "Moderately priced",
    "link": "https://www.google.com/maps/place/Kairos+Cafe/data=!4m7!3m6!1s0x3a280b1790ea09ed:0x3dba0f5bb07da8dd!8m2!3d22.0763134!4d82.1595503!16s%2Fg%2F11f2xymj2s!19sChIJ7QnqkBcLKDoR3ah9sFsPuj0?authuser=0&hl=en&rclk=1"
  },
  {
    "name": "The paradise cafe Koni",
    "phone": "7389212696",
    "rating": "4.5",
    "reviews": "8",
    "category": "Cafe",
    "address": "449M+WGR, Koni, Bilaspur, Chhattisgarh 495009",
    "website": "instagram.com",
    "coordinates": null,
    "plusCode": "Not found",
    "openingHours": "Closed ¬∑ Opens 11‚ÄØpm",
    "businessStatus": "Open",
    "priceLevel": "Not found",
    "link": "https://www.google.com/maps/place/The+paradise+cafe+Koni/data=!4m7!3m6!1s0x3a280b0078b40ac5:0xb5694d3c602d8c31!8m2!3d22.1198532!4d82.1337644!16s%2Fg%2F11vzlf90_f!19sChIJxQq0eAALKDoRMYwtYDxNabU?authuser=0&hl=en&rclk=1"
  },
  {
    "name": "‡§Æ‡§π‡§∞‡§æ‡§ú ‡§ö‡§æ‡§Ø ‡§è‡§£‡•ç‡§° ‡§ï‡•ã‡§≤‡•ç‡§°‡§°‡•ç‡§∞‡§ø‡§Ç‡§ï",
    "phone": "Not found",
    "rating": "4.7",
    "reviews": "28",
    "category": "Coffee shop",
    "address": "26GF+FMW, Manikpur, Dhenka, Chhattisgarh 495551",
    "website": "Not found",
    "coordinates": null,
    "plusCode": "Not found",
    "openingHours": "Open 24 hours",
    "businessStatus": "Open",
    "priceLevel": "Not found",
    "link": "https://www.google.com/maps/place/%E0%A4%AE%E0%A4%B9%E0%A4%B0%E0%A4%BE%E0%A4%9C+%E0%A4%9A%E0%A4%BE%E0%A4%AF+%E0%A4%8F%E0%A4%A3%E0%A5%8D%E0%A4%A1+%E0%A4%95%E0%A5%8B%E0%A4%B2%E0%A5%8D%E0%A4%A1%E0%A4%A1%E0%A5%8D%E0%A4%B0%E0%A4%BF%E0%A4%82%E0%A4%95/data=!4m7!3m6!1s0x3a27df1dee87f7bf:0x5d2aff7b3c2b3330!8m2!3d22.0262325!4d82.2242175!16s%2Fg%2F11nxv38g6s!19sChIJv_eH7h3fJzoRMDMrPHv_Kl0?authuser=0&hl=en&rclk=1"
  },
  {
    "name": "Madhuram Sweets Neel Nidhi Restaurant Cafe",
    "phone": "Not found",
    "rating": "3.3",
    "reviews": "23",
    "category": "Cafe",
    "address": "‡§∞‡§ø‡§Ç‡§ó ‡§∞‡•ã‡§° 2, ‡§®‡§∞‡•ç‡§Æ‡§¶‡§æ ‡§®‡§ó‡§∞, Bilaspur, Chhattisgarh 495001",
    "website": "Not found",
    "coordinates": null,
    "plusCode": "34QG+46 Bilaspur, Chhattisgarh",
    "openingHours": "Closed ¬∑ Opens 9‚ÄØam",
    "businessStatus": "Open",
    "priceLevel": "Price range histogram",
    "link": "https://www.google.com/maps/place/Madhuram+Sweets+Neel+Nidhi+Restaurant+Cafe/data=!4m7!3m6!1s0x3a280b9eb9d27931:0x80ebaa0f0f38dec4!8m2!3d22.0878706!4d82.125623!16s%2Fg%2F11x2wfwd2x!19sChIJMXnSuZ4LKDoRxN44Dw-q64A?authuser=0&hl=en&rclk=1"
  },
  {
    "name": "MOH MAYA CAFE",
    "phone": "Not found",
    "rating": "5.0",
    "reviews": "4",
    "category": "Cafe",
    "address": "in front of santosh petrol pump, near ggu, Koni, Bilaspur, Chhattisgarh 495009",
    "website": "Not found",
    "coordinates": null,
    "plusCode": "449M+MH Bilaspur, Chhattisgarh",
    "openingHours": "Closed ¬∑ Opens 10:30‚ÄØam (Confirmed by this business 12 weeks ago)",
    "businessStatus": "Open",
    "priceLevel": "Not found",
    "link": "https://www.google.com/maps/place/MOH+MAYA+CAFE/data=!4m7!3m6!1s0x3a280be04882439d:0x5cd33513713d3b6f!8m2!3d22.1192307!4d82.1339258!16s%2Fg%2F11yjg0rtqr!19sChIJnUOCSOALKDoRbzs9cRM101w?authuser=0&hl=en&rclk=1"
  },
  {
    "name": "Cafe Connect",
    "phone": "7752400239",
    "rating": "2.9",
    "reviews": "16",
    "category": "Restaurant",
    "address": "Gandhi Chowk, opp. Poonam Electronics, Telipara, Chhattisgarh 495001",
    "website": "Not found",
    "coordinates": null,
    "plusCode": "35J7+4V Telipara, Chhattisgarh",
    "openingHours": "Temporarily closed",
    "businessStatus": "Not found",
    "priceLevel": "Not found",
    "link": "https://www.google.com/maps/place/Cafe+Connect/data=!4m7!3m6!1s0x3a280b68bbd814b1:0x798a3c5f16c6a0eb!8m2!3d22.080254!4d82.1647015!16s%2Fg%2F11bw8k9rw2!19sChIJsRTYu2gLKDoR66DGFl88ink?authuser=0&hl=en&rclk=1"
  },
  {
    "name": "Xpresso Bar High on caffeine",
    "phone": "9301764965",
    "rating": "4.9",
    "reviews": "37",
    "category": "Children's party service",
    "address": "44HG+H7R, near Ratanpur Road, River View Colony, Koni, Bilaspur, Chhattisgarh 495009",
    "website": "instagram.com",
    "coordinates": null,
    "plusCode": "Not found",
    "openingHours": "Not found",
    "businessStatus": "Ó¢µClosed ¬∑ Opens 12‚ÄØpmSee more hoursÓåï",
    "priceLevel": "Photo of reviewer who wrote \"Price was reasonable and food quality was really good..\"",
    "link": "https://www.google.com/maps/place/Xpresso+Bar+High+on+caffeine/data=!4m7!3m6!1s0x3a280b2b58408ff3:0x8866f7bf66a747f5!8m2!3d22.1290931!4d82.1285942!16s%2Fg%2F11vln_lyf7!19sChIJ849AWCsLKDoR9UenZr_3Zog?authuser=0&hl=en&rclk=1"
  },
  {
    "name": "Crossquare Cafe",
    "phone": "8959996666",
    "rating": "3.9",
    "reviews": "393",
    "category": "Cafe",
    "address": "Agrasen Chowk, Bilaspur, Telipara, Chhattisgarh 495001",
    "website": "Not found",
    "coordinates": null,
    "plusCode": "35G2+WV Bilaspur, Chhattisgarh",
    "openingHours": "Temporarily closed",
    "businessStatus": "Not found",
    "priceLevel": "Price range histogram",
    "link": "https://www.google.com/maps/place/Crossquare+Cafe/data=!4m7!3m6!1s0x3a280b284e0724d1:0xd7b1f5cde7694fcf!8m2!3d22.0772632!4d82.1522161!16s%2Fg%2F11gmcfts5p!19sChIJ0SQHTigLKDoRz09p5831sdc?authuser=0&hl=en&rclk=1"
  },
  {
    "name": "Black Jack Cafe",
    "phone": "9685550000",
    "rating": "3.7",
    "reviews": "22",
    "category": "Cafe",
    "address": "3rd floor Apollo city centr, Link Road, CMD Chowk, Vidya Nagar, Chhattisgarh 495004",
    "website": "Not found",
    "coordinates": null,
    "plusCode": "35C5+MG Vidya Nagar, Chhattisgarh",
    "openingHours": "Temporarily closed",
    "businessStatus": "Not found",
    "priceLevel": "Not found",
    "link": "https://www.google.com/maps/place/Black+Jack+Cafe/data=!4m7!3m6!1s0x3a280b94cc18e2d5:0xbda115db8745301b!8m2!3d22.0717204!4d82.158827!16s%2Fg%2F11ghdrjgh7!19sChIJ1eIYzJQLKDoRGzBFh9sVob0?authuser=0&hl=en&rclk=1"
  },
  {
    "name": "Chai sutta bar bilaspur",
    "phone": "9669663727",
    "rating": "4.0",
    "reviews": "452",
    "category": "Cafe",
    "address": "Srikant Verma Marg, Vidya Nagar, Chhattisgarh 495004",
    "website": "zoma.to",
    "coordinates": null,
    "plusCode": "35F3+63 Vidya Nagar, Chhattisgarh",
    "openingHours": "Temporarily closed",
    "businessStatus": "Not found",
    "priceLevel": "Price range histogram",
    "link": "https://www.google.com/maps/place/Chai+sutta+bar+bilaspur/data=!4m7!3m6!1s0x3a280b0c58bc7ae3:0xe43aa0f7023e0453!8m2!3d22.0730944!4d82.152702!16s%2Fg%2F11h41v93qx!19sChIJ43q8WAwLKDoRUwQ-AvegOuQ?authuser=0&hl=en&rclk=1"
  },
  {
    "name": "Gupshup cafe",
    "phone": "6261921402",
    "rating": "4.5",
    "reviews": "97",
    "category": "Cafe",
    "address": "349V+JQ4, Saluja Vihar, Bhartiya Nagar, Bilaspur, Chhattisgarh 495001",
    "website": "Not found",
    "coordinates": null,
    "plusCode": "Not found",
    "openingHours": "Temporarily closed",
    "businessStatus": "Not found",
    "priceLevel": "Not found",
    "link": "https://www.google.com/maps/place/Gupshup+cafe/data=!4m7!3m6!1s0x3a280bb16dd4c76d:0x69a17459473e842d!8m2!3d22.0690037!4d82.1444508!16s%2Fg%2F11h_6w6cqq!19sChIJbcfUbbELKDoRLYQ-R1l0oWk?authuser=0&hl=en&rclk=1"
  },
  {
    "name": "Cafe One Bite",
    "phone": "Not found",
    "rating": "4.2",
    "reviews": "52",
    "category": "Cafe",
    "address": "Link Road, Super Market, in front of Raja Raghuraj Singh Stadium, Bilaspur, Chhattisgarh 495001",
    "website": "onebite.co.in",
    "coordinates": null,
    "plusCode": "35G2+XH Bilaspur, Chhattisgarh",
    "openingHours": "Temporarily closed",
    "businessStatus": "Not found",
    "priceLevel": "Not found",
    "link": "https://www.google.com/maps/place/Cafe+One+Bite/data=!4m7!3m6!1s0x3a280b2cad8057e3:0x6a8932e21e8ebfde!8m2!3d22.0774211!4d82.15139!16s%2Fg%2F11ft36dwfr!19sChIJ41eArSwLKDoR3r-OHuIyiWo?authuser=0&hl=en&rclk=1"
  },
  {
    "name": "Chat and gupchup thela",
    "phone": "Not found",
    "rating": "4.5",
    "reviews": "4",
    "category": "Cafe",
    "address": "35M7+2HV, Gend Ram Sao Marg, Juna, Chhattisgarh 495001",
    "website": "Not found",
    "coordinates": null,
    "plusCode": "Not found",
    "openingHours": "Temporarily closed",
    "businessStatus": "Not found",
    "priceLevel": "Not found",
    "link": "https://www.google.com/maps/place/Chat+and+gupchup+thela/data=!4m7!3m6!1s0x3a280b8a5382f12b:0x96dfb909ae7affb4!8m2!3d22.0826124!4d82.1639349!16s%2Fg%2F11h35c7nq0!19sChIJK_GCU4oLKDoRtP96rgm535Y?authuser=0&hl=en&rclk=1"
  },
  {
    "name": "Cheese mania",
    "phone": "Not found",
    "rating": "4.7",
    "reviews": "9",
    "category": "Cafe",
    "address": "173/18, Shiv Talkies Road, Nehru Nagar, Telipara, Chhattisgarh 495001",
    "website": "Not found",
    "coordinates": null,
    "plusCode": "35F6+PC Telipara, Chhattisgarh",
    "openingHours": "Temporarily closed",
    "businessStatus": "Not found",
    "priceLevel": "Not found",
    "link": "https://www.google.com/maps/place/Cheese+mania/data=!4m7!3m6!1s0x3a280b75034f25f9:0xecccd98f0fbe0ba4!8m2!3d22.0743008!4d82.1610058!16s%2Fg%2F11mhq2m33l!19sChIJ-SVPA3ULKDoRpAu-D4_ZzOw?authuser=0&hl=en&rclk=1"
  },
  {
    "name": "Nitesh Cafe",
    "phone": "7224993248",
    "rating": "Not found",
    "reviews": "Not found",
    "category": "Cafe",
    "address": "Atal Awas, Shanichari Bazar, Bahtarai, Bilaspur, Chhattisgarh 495006",
    "website": "Not found",
    "coordinates": null,
    "plusCode": "35Q6+9P Bahtarai, Chhattisgarh",
    "openingHours": "Temporarily closed",
    "businessStatus": "Not found",
    "priceLevel": "Not found",
    "link": "https://www.google.com/maps/place/Nitesh+Cafe/data=!4m7!3m6!1s0x3a280b8dc9f8dc85:0x15faffd39f367448!8m2!3d22.0884067!4d82.161844!16s%2Fg%2F11l_0f1ym3!19sChIJhdz4yY0LKDoRSHQ2n9P_-hU?authuser=0&hl=en&rclk=1"
  },
  {
    "name": "Ashwani Amruttulya",
    "phone": "Not found",
    "rating": "4.6",
    "reviews": "5",
    "category": "Coffee shop",
    "address": "SECL headquarter ke samne, Chingrajpara, Bilaspur, Fadahakhar, Chhattisgarh 495006",
    "website": "Not found",
    "coordinates": null,
    "plusCode": "35W9+4G Bilaspur, Chhattisgarh",
    "openingHours": "Temporarily closed",
    "businessStatus": "Not found",
    "priceLevel": "Not found",
    "link": "https://www.google.com/maps/place/Ashwani+Amruttulya/data=!4m7!3m6!1s0x3a280bb45b590479:0x4de6fc51e6b0a2e0!8m2!3d22.095294!4d82.1688204!16s%2Fg%2F11s_sk158c!19sChIJeQRZW7QLKDoR4KKw5lH85k0?authuser=0&hl=en&rclk=1"
  },
  {
    "name": "Cafe and Restro",
    "phone": "7000767681",
    "rating": "4.9",
    "reviews": "9",
    "category": "Restaurant",
    "address": "Bilaspur Rd, near Triveni Dental College, Bodri, Chhattisgarh 495220",
    "website": "Not found",
    "coordinates": null,
    "plusCode": "24H5+QC Bodri, Chhattisgarh",
    "openingHours": "Closed ¬∑ Opens 12‚ÄØpm",
    "businessStatus": "Open",
    "priceLevel": "Price range histogram",
    "link": "https://www.google.com/maps/place/Cafe+and+Restro/data=!4m7!3m6!1s0x3a28739c53147d5d:0x7475faf299bcf82b!8m2!3d22.0293761!4d82.1085206!16s%2Fg%2F11ssb7qpzz!19sChIJXX0UU5xzKDoRK_i8mfL6dXQ?authuser=0&hl=en&rclk=1"
  },
  {
    "name": "The friends adda",
    "phone": "Not found",
    "rating": "3.5",
    "reviews": "2",
    "category": "Coffee shop",
    "address": "44HH+RCH, Koni, Bilaspur, Chhattisgarh 495009",
    "website": "Not found",
    "coordinates": null,
    "plusCode": "Not found",
    "openingHours": "Closed ¬∑ Opens 10‚ÄØam",
    "businessStatus": "Open",
    "priceLevel": "Not found",
    "link": "https://www.google.com/maps/place/The+friends+adda/data=!4m7!3m6!1s0x3a280b9c2b58addf:0xd66028a5e49fa242!8m2!3d22.1295569!4d82.1285976!16s%2Fg%2F11v9xyqctt!19sChIJ361YK5wLKDoRQqKf5KUoYNY?authuser=0&hl=en&rclk=1"
  },
  {
    "name": "AROFFEE",
    "phone": "8269904477",
    "rating": "3.8",
    "reviews": "51",
    "category": "Coffee shop",
    "address": "Satyam chowk, Link Rd, in front of walraj petrol pump, Bilaspur, Telipara, Chhattisgarh 495001",
    "website": "Not found",
    "coordinates": null,
    "plusCode": "35H2+C9 Bilaspur, Chhattisgarh",
    "openingHours": "Temporarily closed",
    "businessStatus": "Not found",
    "priceLevel": "Price range histogram",
    "link": "https://www.google.com/maps/place/AROFFEE/data=!4m7!3m6!1s0x3a280ba5b0f4ab55:0xbaf0fa2dcaf38af6!8m2!3d22.078576!4d82.1509252!16s%2Fg%2F11ty70mhqj!19sChIJVav0sKULKDoR9orzyi368Lo?authuser=0&hl=en&rclk=1"
  },
  {
    "name": "Cafe Gupshup",
    "phone": "9893702971",
    "rating": "4.2",
    "reviews": "5",
    "category": "Cafe",
    "address": "18, Vyapar Vihar Rd, Bilaspur, Chhattisgarh 495004",
    "website": "Not found",
    "coordinates": null,
    "plusCode": "3573+P7 Bilaspur, Chhattisgarh",
    "openingHours": "Temporarily closed",
    "businessStatus": "Not found",
    "priceLevel": "Not found",
    "link": "https://www.google.com/maps/place/Cafe+Gupshup/data=!4m7!3m6!1s0x3a280b39a5219aa5:0x4c4eedaa587f2bce!8m2!3d22.0643588!4d82.1531562!16s%2Fg%2F11j4sx3djb!19sChIJpZohpTkLKDoRzit_WKrtTkw?authuser=0&hl=en&rclk=1"
  },
  {
    "name": "Cafeteria",
    "phone": "Not found",
    "rating": "3.7",
    "reviews": "31",
    "category": "Cafe",
    "address": "2492+794, Bodri, Chhattisgarh 495220",
    "website": "Not found",
    "coordinates": null,
    "plusCode": "Not found",
    "openingHours": "Closed ¬∑ Opens 8‚ÄØam",
    "businessStatus": "Open",
    "priceLevel": "Moderately priced",
    "link": "https://www.google.com/maps/place/Cafeteria/data=!4m7!3m6!1s0x3a28731400cac151:0x7a519a01028bf2f7!8m2!3d22.018138!4d82.1009587!16s%2Fg%2F11hbv8klpw!19sChIJUcHKABRzKDoR9_KLAgGaUXo?authuser=0&hl=en&rclk=1"
  },
  {
    "name": "D's Cafe",
    "phone": "8878887821",
    "rating": "5.0",
    "reviews": "Not found",
    "category": "Cafe",
    "address": "Magarpara Rd, Govind Nagar, Jarahbhata, Chhattisgarh 495001",
    "website": "Not found",
    "coordinates": null,
    "plusCode": "34HR+R3 Jarahbhata, Bilaspur, Chhattisgarh",
    "openingHours": "Temporarily closed",
    "businessStatus": "Not found",
    "priceLevel": "Not found",
    "link": "https://www.google.com/maps/place/D%27s+Cafe/data=!4m7!3m6!1s0x3a280bf2dc878951:0x389083f250e43220!8m2!3d22.079584!4d82.1401524!16s%2Fg%2F11s9ls1vxw!19sChIJUYmH3PILKDoRIDLkUPKDkDg?authuser=0&hl=en&rclk=1"
  },
  {
    "name": "Vikas Shop",
    "phone": "7489778348",
    "rating": "3.6",
    "reviews": "Not found",
    "category": "Coffee shop",
    "address": "Snichri Chaupati, Bilaspur, Juna, Chhattisgarh 495001",
    "website": "Not found",
    "coordinates": null,
    "plusCode": "35P6+3M Bilaspur, Chhattisgarh",
    "openingHours": "Temporarily closed",
    "businessStatus": "Not found",
    "priceLevel": "Not found",
    "link": "https://www.google.com/maps/place/Vikas+Shop/data=!4m7!3m6!1s0x3a280bf0009ea11b:0x8fd3b3038e7cfcf1!8m2!3d22.0851793!4d82.1617173!16s%2Fg%2F11ybz_d00n!19sChIJG6GeAPALKDoR8fx8jgOz048?authuser=0&hl=en&rclk=1"
  },
  {
    "name": "YADAV JI NAASHTA SENTAL",
    "phone": "Not found",
    "rating": "4.5",
    "reviews": "Not found",
    "category": "Coffee shop",
    "address": "Tikrapara Main Rd, Tikrapara, Bilaspur, Chhattisgarh 495004",
    "website": "Not found",
    "coordinates": null,
    "plusCode": "35CC+33 Bilaspur, Chhattisgarh",
    "openingHours": "Temporarily closed",
    "businessStatus": "Not found",
    "priceLevel": "Not found",
    "link": "https://www.google.com/maps/place/YADAV+JI+NAASHTA+SENTAL/data=!4m7!3m6!1s0x3a280b1fab6edb25:0x2c8721a667851444!8m2!3d22.0702128!4d82.1701858!16s%2Fg%2F11v9z333r2!19sChIJJdtuqx8LKDoRRBSFZ6Yhhyw?authuser=0&hl=en&rclk=1"
  },
  {
    "name": "Surendra Kumar Banjare",
    "phone": "6262792079",
    "rating": "4.6",
    "reviews": "Not found",
    "category": "Coffee shop",
    "address": "00, Tarbahar Chowk, Bilaspur, Chhattisgarh 495004",
    "website": "Not found",
    "coordinates": null,
    "plusCode": "3575+FX Bilaspur, Chhattisgarh",
    "openingHours": "Temporarily closed",
    "businessStatus": "Not found",
    "priceLevel": "Not found",
    "link": "https://www.google.com/maps/place/Surendra+Kumar+Banjare/data=!4m7!3m6!1s0x3a280b0d8aa889ff:0x5544a26220b5c923!8m2!3d22.0636991!4d82.1599938!16s%2Fg%2F11jz_hm8_p!19sChIJ_4moig0LKDoRI8m1IGKiRFU?authuser=0&hl=en&rclk=1"
  }
]